City_ID,City,Lat,Lng,Max Temp,Humidity,Cloudiness,Wind Speed,Country,Date
0,waitangi,-43.9535,-176.5597,8.23,97,96,1.79,NZ,1726432531
1,askern,53.6164,-1.1524,13.82,88,63,3.09,GB,1726432532
2,la passe,45.5549,-0.8967,14.9,51,68,4.5,FR,1726432533
3,puerto ayora,-0.7393,-90.3518,22.53,93,76,3.58,EC,1726432534
4,ilulissat,69.2167,-51.1,-0.29,75,99,1.61,GL,1726432535
5,adamstown,-25.066,-130.1015,20.29,79,100,7.25,PN,1726432536
6,robertsport,6.7533,-11.3686,24.0,95,100,4.91,LR,1726432538
7,phongsali,21.6833,102.1058,20.27,85,100,0.2,LA,1726432539
8,belmonte,-15.8631,-38.8828,23.62,81,1,3.64,BR,1726432540
9,kapa'a,22.0752,-159.319,28.18,72,100,6.69,US,1726432541
10,blackmans bay,-43.0167,147.3167,7.63,90,55,0.89,AU,1726432542
11,saacow,1.6279,42.4407,24.56,76,61,7.56,SO,1726432543
12,san antonio de pale,-1.4014,5.6325,24.57,85,70,4.72,GQ,1726432544
13,tiksi,71.6872,128.8694,0.0,86,100,3.95,RU,1726432545
14,olonkinbyen,70.9221,-8.7187,2.5,95,100,11.41,SJ,1726432546
15,tuy hoa,13.0833,109.3,26.33,77,60,6.03,VN,1726432547
16,negapatam,10.7667,79.8333,29.14,67,97,4.71,IN,1726432549
17,katsuura,35.1333,140.3,26.69,89,96,4.15,JP,1726432550
18,georgetown,5.4112,100.3354,25.96,93,40,2.57,MY,1726432551
19,albany,42.6001,-73.9662,28.84,56,1,1.49,US,1726432552
20,fort bragg,35.139,-79.006,26.91,76,75,7.2,US,1726432553
21,bethel,41.3712,-73.414,26.3,59,20,3.09,US,1726432554
22,invercargill,-46.4,168.35,3.34,94,70,2.24,NZ,1726432555
23,sandakan,5.8402,118.1179,26.82,88,20,1.54,MY,1726432556
24,trincomalee,8.5711,81.2335,28.06,76,35,9.55,LK,1726432558
25,lihue,21.9789,-159.3672,27.77,71,100,6.69,US,1726432560
26,kununurra,-15.7667,128.7333,16.99,67,75,0.0,AU,1726432329
27,port-aux-francais,-49.35,70.2167,2.33,71,79,13.02,TF,1726432562
28,iqaluit,63.7506,-68.5145,3.85,86,100,6.17,CA,1726432563
29,porto novo,6.4965,2.6036,25.9,91,33,3.05,BJ,1726432564
30,talnakh,69.4865,88.3972,4.25,70,100,3.25,RU,1726432565
31,mantua,45.1667,10.7833,18.36,77,25,3.13,IT,1726432566
32,grytviken,-54.2811,-36.5092,-2.68,72,73,4.18,GS,1726432567
33,hawaiian paradise park,19.5933,-154.9731,28.26,75,20,1.54,US,1726432568
34,tura,25.5198,90.2201,23.4,93,100,2.0,IN,1726432569
35,utrik,11.2278,169.8474,28.62,74,66,4.92,MH,1726432570
36,yellowknife,62.456,-114.3525,15.79,70,40,4.63,CA,1726432572
37,nova sintra,14.8667,-24.7167,26.4,76,91,3.41,CV,1726432573
38,cabedelo,-6.9811,-34.8339,26.37,76,45,6.46,BR,1726432574
39,san patricio,28.017,-97.5169,30.97,82,100,2.67,US,1726432575
40,ribeira grande,38.5167,-28.7,24.22,64,40,4.12,PT,1726432576
41,yreka,41.7354,-122.6345,19.1,48,100,3.09,US,1726432577
42,kardla,58.9978,22.7492,13.79,89,62,3.71,EE,1726432578
43,vernon,50.2581,-119.2691,20.97,43,0,1.03,CA,1726432579
44,st. john's,47.5649,-52.7093,12.86,79,75,10.28,CA,1726432580
45,longyearbyen,78.2186,15.6401,4.91,93,75,2.57,SJ,1726432581
46,wailua homesteads,22.0669,-159.378,27.44,75,100,6.69,US,1726432583
47,uturoa,-16.7333,-151.4333,25.65,80,7,3.28,PF,1726432584
48,eirunepe,-6.6603,-69.8736,37.12,26,80,0.66,BR,1726432585
49,coruripe,-10.1256,-36.1756,22.94,78,7,3.68,BR,1726432586
50,vadso,70.0744,29.7487,6.09,93,0,3.6,NO,1726432587
51,taoudenni,22.6783,-3.9836,38.27,16,25,1.39,ML,1726432588
52,yung shue wan,22.2333,114.1167,27.96,86,24,2.68,HK,1726432589
53,edinburgh of the seven seas,-37.0676,-12.3116,14.7,92,100,11.63,SH,1726432590
54,port alfred,-33.5906,26.891,12.88,94,1,0.89,ZA,1726432591
55,hamilton,39.1834,-84.5333,33.27,29,0,4.63,US,1726432592
56,ushuaia,-54.8,-68.3,3.81,70,75,9.26,AR,1726432516
57,constantia,44.1833,28.65,14.38,91,45,4.9,RO,1726432595
58,port mathurin,-19.6833,63.4167,21.01,68,73,9.73,MU,1726432596
59,east london,-33.0153,27.9116,17.84,81,95,5.34,ZA,1726432597
60,port said,31.2565,32.2841,27.99,74,0,5.14,EG,1726432598
61,prince rupert,54.3161,-130.3201,13.05,88,100,3.6,CA,1726432373
62,kailua-kona,19.6406,-155.9956,29.6,64,40,4.63,US,1726432600
63,shenjiamen,29.9576,122.298,25.68,94,100,14.68,CN,1726432602
64,jamestown,42.097,-79.2353,27.79,35,20,3.58,US,1726432603
65,atafu village,-8.5421,-172.5159,27.98,77,14,4.26,TK,1726432605
66,mar del plata,-38.0023,-57.5575,18.07,39,0,9.77,AR,1726432607
67,puerto leguizamo,-0.1934,-74.7819,36.74,31,19,0.18,CO,1726432608
68,kamen'-na-obi,53.7884,81.3423,1.87,79,1,3.21,RU,1726432609
69,oamaru,-45.0784,170.9801,6.7,74,37,5.34,NZ,1726432591
70,cambria,35.5641,-121.0808,25.69,83,34,2.24,US,1726432611
71,iskateley,67.6803,53.1512,14.94,74,95,3.54,RU,1726432612
72,newman,37.3138,-121.0208,27.8,35,72,6.26,US,1726432613
73,serchhip,23.3,92.8333,21.59,98,99,0.84,IN,1726432615
74,flying fish cove,-10.4217,105.6791,23.82,94,75,3.6,CX,1726432616
75,mangrol,21.1167,70.1167,26.48,78,9,2.96,IN,1726432617
76,saipan,15.1355,145.701,28.39,83,75,10.29,MP,1726432618
77,melendugno,40.2747,18.3368,18.05,94,0,1.03,IT,1726432619
78,sao joao da barra,-21.6403,-41.0511,27.05,85,1,4.42,BR,1726432620
79,thompson,55.7435,-97.8558,22.09,40,20,7.72,CA,1726432621
80,niafunke,15.9322,-3.9906,28.86,62,99,1.24,ML,1726432622
81,susuman,62.7833,148.1667,-0.28,86,100,1.52,RU,1726432623
82,aasiaat,68.7098,-52.8699,0.23,81,100,2.92,GL,1726432624
83,guarapari,-20.6667,-40.4975,23.08,84,0,5.43,BR,1726432626
84,itoman,26.1247,127.6694,30.22,87,75,4.63,JP,1726432627
85,west island,-12.1568,96.8225,25.99,78,75,4.63,CC,1726432628
86,khust,48.1793,23.2991,12.27,92,100,1.61,UA,1726432629
87,papatowai,-46.5619,169.4708,5.31,86,91,2.34,NZ,1726432630
88,hithadhoo,-0.6,73.0833,28.2,76,44,4.61,MV,1726432631
89,rio grande,-32.035,-52.0986,13.72,78,10,3.38,BR,1726432632
90,geneina,13.45,22.45,23.0,75,100,1.31,SD,1726432633
91,chonchi,-42.6128,-73.8092,11.73,66,100,1.94,CL,1726432634
92,bodo,67.28,14.405,13.76,56,0,4.63,NO,1726432635
93,inarajan village,13.2736,144.7484,26.54,94,99,5.05,GU,1726432637
94,mayna,54.1135,47.6231,14.36,72,3,2.58,RU,1726432638
95,palmares do sul,-30.2578,-50.5097,16.17,78,100,4.75,BR,1726432639
96,bredasdorp,-34.5322,20.0403,12.82,72,95,4.27,ZA,1726432640
97,wenchang,30.904,118.4887,22.87,95,90,2.33,CN,1726432641
98,castillos,-34.1667,-53.8333,11.4,73,0,3.12,UY,1726432642
99,anadyr,64.75,177.4833,4.28,86,0,3.58,RU,1726432643
100,pointe-noire,-4.7761,11.8635,24.15,88,7,4.15,CG,1726432644
101,arraial do cabo,-22.9661,-42.0278,23.92,83,40,4.63,BR,1726432645
102,luderitz,-26.6481,15.1594,12.7,78,0,10.08,NA,1726432646
103,puerto lempira,15.2667,-83.7667,34.08,59,20,3.09,HN,1726432648
104,puerto natales,-51.7236,-72.4875,7.25,81,75,7.2,CL,1726432649
105,weno,7.4515,151.8468,23.97,100,100,0.0,FM,1726432650
106,whitehorse,60.7161,-135.0538,9.43,86,75,5.14,CA,1726432651
107,floro,61.5996,5.0328,12.98,88,100,2.06,NO,1726432652
108,volodymyr-volynskyi,50.8525,24.3236,15.25,91,100,3.75,UA,1726432653
109,boende,-0.2167,20.8667,23.73,91,99,2.57,CD,1726432654
110,egilsstadir,65.2653,-14.3948,2.95,70,40,3.6,IS,1726432655
111,tolanaro,-25.0319,46.9987,22.04,83,0,9.26,MG,1726432656
112,stanley,54.868,-1.6985,11.21,84,0,3.09,GB,1726432657
113,kyzylorda,44.8528,65.5092,15.01,38,0,5.0,KZ,1726432659
114,siguiri,11.6667,-9.5,23.1,96,98,1.84,GN,1726432660
115,tosontsengel,48.7567,98.2839,0.51,79,0,0.81,MN,1726432661
116,tofol,5.3248,163.0078,27.63,73,100,2.5,FM,1726432662
117,saint-pierre,-21.3393,55.4781,19.82,60,0,3.6,RE,1726432663
118,goris,41.9842,44.1158,14.55,49,4,4.04,GE,1726432664
119,susanville,40.4163,-120.653,19.85,20,100,7.06,US,1726432665
120,kingscliff,-28.2667,153.5667,14.41,62,11,6.17,AU,1726432666
121,laojunmiao,39.8333,97.7333,12.07,74,9,3.33,CN,1726432667
122,bardai,11.65,7.2333,23.14,83,39,2.27,NG,1726432668
123,mexia,31.6799,-96.4822,36.03,48,40,2.24,US,1726432670
124,fortuna,40.5982,-124.1573,18.85,74,100,6.69,US,1726432671
125,carnarvon,-24.8667,113.6333,19.9,36,0,10.26,AU,1726432672
126,mrakovo,52.7161,56.6244,11.02,88,10,2.59,RU,1726432673
127,dali,25.7,100.1833,16.83,91,100,1.14,CN,1726432860
128,arteche,12.2645,125.4048,26.7,82,100,5.23,PH,1726432861
129,klaksvik,62.2266,-6.589,8.05,80,100,10.31,FO,1726432862
130,ust-nera,64.5667,143.2,1.4,82,100,2.23,RU,1726432863
131,tamiahua,21.2667,-97.45,30.73,72,56,4.55,MX,1726432864
132,alotau,-10.3069,150.4462,24.16,96,100,1.47,PG,1726432866
133,singaraja,-8.112,115.0882,25.09,77,96,1.33,ID,1726432867
134,tomatlan,19.9333,-105.25,32.03,66,70,4.28,MX,1726432868
135,tres arroyos,-38.3739,-60.2798,12.63,45,35,3.93,AR,1726432869
136,kayangel,8.0823,134.7173,28.3,82,100,11.23,PW,1726432870
137,jesus de otoro,14.4833,-87.9833,30.81,47,100,1.15,HN,1726432871
138,puerto aysen,-45.4,-72.7,4.37,100,100,2.87,CL,1726432872
139,straldzha,42.6,26.6833,15.25,81,82,1.99,BG,1726432873
140,adrar,20.5022,-10.0711,34.91,34,85,2.39,MR,1726432874
141,crucecita,-28.95,-58.9833,21.62,40,0,4.51,AR,1726432875
142,afaahiti,-17.75,-149.2833,23.71,83,13,2.19,PF,1726432891
143,petrozavodsk,61.7849,34.3469,12.7,94,32,2.0,RU,1726432892
144,isafjordur,66.0755,-23.124,2.41,70,8,1.28,IS,1726432894
145,nar'yan-mar,67.6713,53.087,14.98,74,95,3.55,RU,1726432895
146,cidreira,-30.1811,-50.2056,16.13,82,100,4.65,BR,1726432896
147,kencong,-8.2833,113.3667,21.86,93,100,0.95,ID,1726432897
148,biswan,27.5,81.0,26.13,80,98,2.4,IN,1726432898
149,kodiak,57.79,-152.4072,14.73,47,20,4.63,US,1726432899
150,port saint john's,-31.6229,29.5448,20.09,81,80,2.94,ZA,1726432900
151,ihosy,-22.4,46.1167,16.59,88,24,3.93,MG,1726432901
152,barra de santo antonio,-9.4047,-35.5072,24.19,77,21,4.48,BR,1726432902
153,pandan,14.0453,124.1694,26.81,86,100,3.98,PH,1726432903
154,mwaro,-3.5,29.6667,17.23,33,23,1.55,BI,1726432905
155,gwadar,25.1216,62.3254,26.42,83,20,2.39,PK,1726432906
156,port elizabeth,-33.918,25.5701,15.73,87,20,5.66,ZA,1726432907
157,wamba,8.9333,8.6,22.63,93,13,0.76,NG,1726432908
158,guaratuba,-25.8828,-48.5747,16.22,96,100,4.18,BR,1726432923
159,manokwari,-0.8667,134.0833,26.17,78,97,1.79,ID,1726432924
160,ixtapa,20.7,-105.2,32.9,74,40,5.14,MX,1726432926
161,vorgashor,67.5833,63.95,13.03,97,84,3.94,RU,1726432927
162,shimokizukuri,40.8061,140.3861,13.07,95,0,1.41,JP,1726432928
163,harnai,30.1005,67.9374,26.59,48,0,0.82,PK,1726432929
164,hermanus,-34.4187,19.2345,12.11,75,100,3.36,ZA,1726432930
165,ola,59.5833,151.2833,6.16,74,84,3.57,RU,1726432931
166,minas de marcona,-15.2119,-75.1103,15.27,64,0,7.34,PE,1726432932
167,wuhu,31.3366,118.3755,22.27,92,99,3.97,CN,1726432933
168,pathein,16.7833,94.7333,24.65,94,100,1.92,MM,1726432934
169,codrington,-38.2667,141.9667,9.95,73,100,6.63,AU,1726432935
170,howrah,22.5892,88.3103,27.0,94,100,5.14,IN,1726432937
171,punta arenas,-53.15,-70.9167,6.06,70,40,7.2,CL,1726432938
172,san pedro,14.35,121.0167,26.22,98,100,0.51,PH,1726432760
173,kolonia town,6.964,158.206,26.0,94,100,1.54,FM,1726432955
174,colonia,50.9333,6.95,17.19,83,100,1.9,DE,1726432721
175,orhaneli,39.9033,28.9906,15.95,83,0,0.23,TR,1726432957
176,kingston,17.997,-76.7936,33.53,66,20,9.26,JM,1726432958
177,tazovsky,67.4667,78.7,4.76,61,72,5.21,RU,1726432959
178,kenai,60.5544,-151.2583,13.41,75,0,12.86,US,1726432960
179,sodankyla,67.4167,26.6,9.12,71,100,1.84,FI,1726432961
180,bloemfontein,-29.1211,26.214,18.71,26,67,5.14,ZA,1726432962
181,petropavlovsk-kamchatsky,53.0452,158.6483,5.33,93,75,1.0,RU,1726432963
182,avarua,-21.2078,-159.775,25.03,69,40,7.72,CK,1726432965
183,iranshahr,27.2025,60.6848,32.19,33,0,2.06,IR,1726432966
184,novo aripuana,-5.1206,-60.3797,34.35,35,83,3.21,BR,1726432967
185,les cayes,18.2,-73.75,30.41,69,52,4.92,HT,1726432968
186,monywa,22.1167,95.1333,25.67,89,100,1.96,MM,1726432969
187,mulayjah,27.271,48.4242,29.61,24,0,2.73,SA,1726432987
188,nabire,-3.3667,135.4833,24.41,93,99,1.42,ID,1726432988
189,grand gaube,-20.0064,57.6608,21.32,59,91,0.45,MU,1726432989
190,kasongo-lunda,-6.4667,16.8167,29.92,38,68,1.56,CD,1726432990
191,mount pearl,47.5166,-52.7813,12.4,78,75,6.17,CA,1726432992
192,liwale,-9.7667,37.9333,20.13,64,0,1.66,TZ,1726432993
193,alofi,-19.0595,-169.9187,26.94,78,75,3.6,NU,1726432994
194,udachny,66.4167,112.4,0.41,91,100,2.17,RU,1726432995
195,inhambane,-23.865,35.3833,23.29,93,5,5.64,MZ,1726432996
196,boa vista,2.8197,-60.6733,33.99,46,20,3.09,BR,1726432782
197,shahgarh,24.3167,79.1333,22.66,91,100,2.6,IN,1726432998
198,mogoytuy,51.2833,114.9167,7.0,81,71,6.47,RU,1726432999
199,mugia,43.1041,-9.2179,17.17,69,53,9.17,ES,1726433000
200,piacabucu,-10.4056,-36.4344,23.64,76,3,3.23,BR,1726433001
201,kabwe,-14.4469,28.4464,22.25,23,1,2.97,ZM,1726433018
202,magdagachi,53.45,125.8,7.91,88,100,3.0,RU,1726433019
203,tome,-36.6167,-72.95,16.34,59,1,3.05,CL,1726433020
204,ibiza,38.9088,1.433,21.07,71,0,1.54,ES,1726433021
205,okha,53.5739,142.9478,7.65,77,4,3.53,RU,1726432769
206,nuuk,64.1835,-51.7216,3.34,100,100,1.54,GL,1726433023
207,golaghat,26.5167,93.9667,25.15,90,100,2.06,IN,1726433026
208,amurzet,47.6967,131.0981,10.08,79,100,2.55,RU,1726433027
209,college,64.8569,-147.8028,10.04,85,100,2.57,US,1726433028
210,huarmey,-10.0681,-78.1522,19.76,72,3,5.21,PE,1726433029
211,pontes e lacerda,-15.2261,-59.3353,35.51,28,6,1.07,BR,1726433030
212,badger,64.8,-147.5333,10.14,89,75,2.57,US,1726433031
213,cabo san lucas,22.8909,-109.9124,30.42,72,0,9.26,MX,1726432748
214,agat village,13.3886,144.6585,26.52,94,75,5.14,GU,1726433034
215,komsomolets,53.7453,62.0708,12.06,93,17,3.53,KZ,1726433050
216,toliara,-23.35,43.6667,21.99,84,0,1.57,MG,1726433051
217,margaret river,-33.95,115.0667,11.08,72,0,5.33,AU,1726433052
218,lebu,-37.6167,-73.65,11.12,79,1,6.5,CL,1726433053
219,antsiranana,-12.2787,49.2917,22.33,72,9,8.85,MG,1726433054
220,inirida,3.8653,-67.9239,34.43,52,19,0.99,CO,1726433055
221,kolonia,50.9333,6.95,17.19,83,100,1.9,DE,1726433056
222,vyazemskiy,47.5378,134.7525,9.2,85,77,2.26,RU,1726433057
223,garachico,28.7781,-17.7646,21.06,73,100,4.12,ES,1726433058
224,lamu,-2.2717,40.902,24.66,79,37,6.89,KE,1726433059
225,nemuro,43.3236,145.575,14.56,80,0,5.13,JP,1726433060
226,puerto madero,14.7208,-92.4215,33.11,66,40,5.14,MX,1726433062
227,santa vitoria,-18.8386,-50.1214,32.55,21,2,1.33,BR,1726433063
228,nanlong,31.3533,106.0631,26.16,63,13,1.89,CN,1726433064
229,tazacorte,28.629,-17.9293,22.54,73,100,4.12,ES,1726433065
230,desterro,-7.2906,-37.0939,26.99,40,18,7.98,BR,1726433066
231,arti,56.4234,58.5328,11.72,91,1,1.8,RU,1726433082
232,saint-francois,46.4154,3.9054,10.36,77,0,0.0,FR,1726433083
233,kalamata,37.0389,22.1142,21.17,55,20,1.34,GR,1726433084
234,vilyuchinsk,52.9306,158.4028,6.15,77,92,2.57,RU,1726433085
235,mana,5.6592,-53.7767,27.34,79,11,5.55,GF,1726433086
236,qaqortoq,60.7167,-46.0333,4.82,94,100,0.51,GL,1726433087
237,revda,56.801,59.9303,10.97,98,8,1.19,RU,1726433088
238,jogeva,58.7467,26.3939,13.17,99,99,2.67,EE,1726433090
239,maragogi,-9.0122,-35.2225,23.82,79,6,4.01,BR,1726433091
240,toamasina,-18.1667,49.3833,20.0,94,75,1.03,MG,1726433093
241,mogadishu,2.0371,45.3438,24.97,85,52,8.35,SO,1726433094
242,klyuchi,52.2667,79.1667,4.84,69,44,6.3,RU,1726433095
243,qulsary,46.9531,54.0198,20.01,36,34,5.63,KZ,1726433096
244,numan,9.4667,12.0333,24.51,79,47,1.03,NG,1726434018
245,bilibino,68.0546,166.4372,2.74,99,100,2.72,RU,1726434021
246,hammerfest,70.6634,23.6821,12.25,47,0,1.54,NO,1726434022
247,mejit,10.2753,170.8646,27.99,77,100,4.75,MH,1726434023
248,urucui,-7.2294,-44.5561,32.69,25,18,2.33,BR,1726434024
249,namtsy,62.7161,129.6658,-2.49,92,2,1.98,RU,1726434025
250,kerikeri,-35.2268,173.9474,12.73,89,100,3.05,NZ,1726434026
251,usogorsk,63.4106,48.6872,15.09,94,57,1.67,RU,1726434027
252,qingyang,37.4958,121.2581,18.78,77,0,0.95,CN,1726434028
253,barranca,-10.75,-77.7667,17.82,75,14,5.28,PE,1726434030
254,neftcala,39.3742,49.2472,21.82,49,13,3.3,AZ,1726434031
255,rangapara,26.8167,92.65,25.09,90,100,0.76,IN,1726434032
256,punta del este,-34.9667,-54.95,20.06,85,0,4.12,UY,1726434033
257,ballina,-28.8667,153.5667,11.72,74,70,5.76,AU,1726434034
258,kayenta,36.7278,-110.2546,26.89,17,0,8.41,US,1726434037
259,fengxiang,47.5833,130.8333,10.34,77,100,2.27,CN,1726434040
260,bengkulu,-3.8004,102.2655,24.55,87,52,1.04,ID,1726434041
261,greymouth,-42.4667,171.2,9.43,73,100,1.37,NZ,1726434042
262,honaz,37.7573,29.27,18.39,54,5,1.31,TR,1726434043
263,saldanha,-33.0117,17.9442,14.03,86,97,7.19,ZA,1726434044
264,dhidhdhoo,6.8833,73.1,27.68,79,90,5.68,MV,1726434047
265,tamandare,-8.7597,-35.1047,23.97,78,6,4.05,BR,1726434048
266,galle,6.0367,80.217,28.85,83,66,0.45,LK,1726434049
267,carutapera,-1.195,-46.02,26.43,78,7,5.03,BR,1726434050
268,vila velha,-20.3297,-40.2925,25.97,84,40,5.66,BR,1726434051
269,sainte-anne-des-monts,49.124,-66.4924,14.93,72,58,7.2,CA,1726434052
270,ain sukhna,29.6002,32.3167,26.49,71,0,3.07,EG,1726434054
271,kristiansund,63.1115,7.732,12.36,100,75,0.0,NO,1726434055
272,siverek,37.755,39.3167,24.61,60,6,2.99,TR,1726434056
273,pacific grove,36.6177,-121.9166,18.82,87,63,3.13,US,1726434057
274,padangsidempuan,1.3667,99.2667,21.41,99,100,1.47,ID,1726434058
275,novodvinsk,64.4165,40.8122,15.86,78,81,2.45,RU,1726434059
276,adigrat,14.277,39.462,15.51,70,35,1.29,ET,1726434060
277,mitu,1.1983,-70.1733,32.69,47,72,0.84,CO,1726434061
278,ndende,-2.4008,11.3581,24.95,82,49,2.35,GA,1726434063
279,savanna-la-mar,18.219,-78.1332,27.18,80,97,1.0,JM,1726434064
280,yeniseysk,58.4497,92.1703,-0.75,96,19,1.8,RU,1726434065
281,betio village,1.358,172.9211,30.02,72,30,4.29,KI,1726434066
282,malindi,-3.2175,40.1191,25.09,73,40,3.09,KE,1726434067
283,vila franca do campo,37.7167,-25.4333,22.23,75,65,1.51,PT,1726434068
284,wesley chapel,28.2397,-82.3279,32.26,71,0,1.54,US,1726434070
285,mil'kovo,55.6078,37.7956,19.24,46,95,2.61,RU,1726434071
286,puerto san jose,13.9256,-90.8244,31.1,66,100,3.9,GT,1726434073
287,penhalonga,-18.8911,32.6978,18.3,31,0,1.56,ZW,1726434074
288,zemio,5.0314,25.1361,21.03,98,100,1.47,CF,1726434075
289,gadzhiyevo,69.2551,33.3362,9.3,98,100,4.86,RU,1726434077
290,chandbali,20.7833,86.7667,25.61,82,100,6.33,IN,1726434078
291,nkove,-7.95,30.85,25.0,45,0,1.39,TZ,1726434079
292,salym,60.0625,71.4789,3.79,79,7,0.83,RU,1726434081
293,verdal,63.7933,11.4817,11.49,83,100,0.96,NO,1726434082
294,anar darah,32.7587,61.654,21.86,29,5,3.62,AF,1726434083
295,kargasok,59.0556,80.8572,2.0,82,7,3.06,RU,1726434084
296,olyokminsk,60.3736,120.4264,0.97,83,100,2.8,RU,1726434086
297,port augusta,-32.5,137.7667,3.86,72,0,2.94,AU,1726434087
298,altinekin,38.3078,32.8686,20.26,46,21,9.51,TR,1726434088
299,san andres,12.5847,-81.7006,31.01,74,20,4.12,CO,1726434089
300,arrifes,37.7667,-25.7,21.14,73,40,3.09,PT,1726434090
301,el calafate,-50.3408,-72.2768,4.03,90,80,4.68,AR,1726434091
302,hilo,19.7297,-155.09,28.86,80,40,3.13,US,1726434007
303,xinyu,27.8043,114.9334,23.92,96,33,1.9,CN,1726434093
304,rakops,-21.0167,24.3333,26.38,18,12,3.45,BW,1726434094
305,smithers,54.7804,-127.1743,14.18,58,40,0.0,CA,1726434095
306,qandala,11.472,49.8728,32.49,48,63,2.09,SO,1726434096
307,tambacounda,13.7539,-13.7586,27.03,94,40,2.06,SN,1726434098
308,markovo,57.3206,107.0881,1.86,95,100,3.77,RU,1726434099
309,nova vicosa,-17.8919,-39.3719,24.22,80,0,5.45,BR,1726434100
310,pervomayskiy,53.2485,40.2871,15.8,39,22,3.69,RU,1726434101
311,sisimiut,66.9395,-53.6735,3.74,84,96,4.35,GL,1726434102
312,khovd,48.0056,91.6419,7.1,37,0,3.03,MN,1726434103
313,tucuma,-0.1833,-50.05,28.48,71,69,4.81,BR,1726434104
314,yenifakili,39.2114,35.0004,23.18,33,0,2.86,TR,1726434105
315,gamay,12.3854,125.2979,26.24,84,100,5.33,PH,1726434108
316,chubbuck,42.9208,-112.4661,29.88,18,47,9.39,US,1726434109
317,nagqu,31.5,92.0,2.07,84,86,1.88,CN,1726434110
318,keren,15.7778,38.4581,23.24,74,98,1.4,ER,1726434111
319,arapgir,39.0412,38.4952,21.67,25,44,0.77,TR,1726434112
320,severo-yeniseyskiy,60.3725,93.0408,-3.08,97,36,1.59,RU,1726434113
321,banfora,10.6333,-4.7667,23.62,94,94,2.75,BF,1726434114
322,dongsheng,39.8161,109.9776,12.55,98,100,3.31,CN,1726434115
323,val-d'or,48.1002,-77.7828,27.05,47,75,5.14,CA,1726434116
324,palora,-1.7,-77.9333,29.06,39,71,1.72,EC,1726434118
325,uribia,11.7139,-72.266,35.93,40,0,3.41,CO,1726434119
326,kapuskasing,49.4169,-82.4331,28.05,50,75,7.2,CA,1726434120
327,san luis de la loma,17.2706,-100.8939,30.68,69,89,2.8,MX,1726434121
328,maumere,-8.6199,122.2111,23.82,79,64,1.71,ID,1726434122
329,polyarnyy,69.1989,33.4478,9.25,97,100,4.34,RU,1726434123
330,amursk,50.2261,136.8994,6.74,96,2,2.77,RU,1726434124
331,sinabang,2.4803,96.3801,25.58,83,100,1.42,ID,1726434125
332,tevriz,57.509,72.4042,3.74,83,0,1.96,RU,1726434126
333,chickasha,35.0526,-97.9364,34.09,43,0,6.69,US,1726434127
334,barah,13.7,30.3667,29.88,54,20,6.08,SD,1726434129
335,cody,44.5263,-109.0565,28.12,19,0,2.06,US,1726434130
336,nikologory,56.1413,41.9922,13.92,64,90,2.08,RU,1726434131
337,luganville,-15.5333,167.1667,25.69,88,97,4.22,VU,1726434132
338,mwene-ditu,-7.0,23.45,27.28,23,20,1.6,CD,1726434133
339,guerrero negro,27.9769,-114.0611,23.17,57,0,6.97,MX,1726434134
340,christchurch,-43.5333,172.6333,9.39,92,75,4.92,NZ,1726434001
341,khandyga,62.6667,135.6,-0.46,91,70,1.44,RU,1726434136
342,khabarovsk,48.4808,135.0928,6.89,93,77,2.0,RU,1726433912
343,alo,6.5486,4.2686,24.71,92,90,2.98,NG,1726434138
344,az zulfi,26.2995,44.8154,29.67,12,0,4.43,SA,1726434140
345,rampur,28.8167,79.0333,24.11,89,30,1.92,IN,1726434142
346,mersa matruh,31.3525,27.2453,26.11,65,20,4.12,EG,1726434143
347,barrouallie,13.2333,-61.2667,28.79,79,40,2.57,VC,1726434144
348,mumford,5.2618,-0.759,24.07,90,79,5.86,GH,1726434145
349,east falmouth,41.5784,-70.5586,22.83,56,0,5.36,US,1726434146
350,zouerate,22.7187,-12.4521,37.57,19,23,0.87,MR,1726434147
351,sao jose da coroa grande,-8.8978,-35.1478,24.28,78,5,4.62,BR,1726434148
352,north bend,43.4065,-124.2243,20.14,72,20,8.75,US,1726434150
353,dudinka,69.4058,86.1778,5.51,56,100,6.16,RU,1726434152
354,butembo,0.15,29.2833,15.64,71,91,0.95,CD,1726434021
355,trairi,-3.2778,-39.2689,25.36,81,3,6.55,BR,1726434154
356,fale old settlement,-9.3852,-171.2468,27.95,76,61,4.1,TK,1726434155
357,barquisimeto,10.0739,-69.3228,33.35,35,7,6.69,VE,1726434156
358,aoulef,26.9667,1.0833,35.58,16,0,4.39,DZ,1726434157
359,sampacho,-33.3839,-64.7221,23.38,21,60,6.39,AR,1726434158
360,kaukauna,44.278,-88.272,30.53,50,19,1.79,US,1726434159
361,plettenberg bay,-34.0527,23.3716,14.46,79,58,2.61,ZA,1726434160
362,dhanera,24.5167,72.0167,24.64,76,3,2.56,IN,1726434162
363,skovorodino,53.9833,123.9167,7.45,92,100,2.54,RU,1726434163
364,muynoq,43.7683,59.0214,19.72,58,100,6.15,UZ,1726434164
365,hasaki,35.7333,140.8333,26.36,87,72,2.2,JP,1726434165
366,island harbour,50.724,-1.2758,14.99,69,98,3.62,GB,1726434166
367,stanthorpe,-28.6667,151.95,6.9,72,0,4.54,AU,1726434168
368,ta`u,-14.2336,-169.5144,26.4,81,50,6.15,AS,1726434169
369,manggar,-2.8833,108.2667,26.59,77,60,2.81,ID,1726434170
370,enewetak,11.3474,162.3373,28.63,79,88,6.52,MH,1726434172
371,yelizovo,53.1873,158.3805,6.08,93,75,1.0,RU,1726434173
372,fort mcmurray,56.7268,-111.381,15.77,72,100,1.54,CA,1726434117
373,san juan de miraflores,-12.1629,-76.9635,21.21,69,26,3.89,PE,1726434175
374,gunjur,13.2019,-16.7339,27.04,89,75,1.54,GM,1726434177
375,cadale,2.7603,46.3222,24.96,85,45,7.94,SO,1726434178
376,ancud,-41.8697,-73.8203,9.29,74,41,3.78,CL,1726434179
377,dolinsk,47.35,142.8,10.3,75,0,2.74,RU,1726434180
378,acarau,-2.8856,-40.12,25.64,78,3,8.53,BR,1726434183
379,sault ste. marie,46.5168,-84.3333,27.16,54,0,3.09,CA,1726434184
380,altus,34.6381,-99.334,36.04,36,0,5.66,US,1726434185
381,axim,4.8699,-2.2405,23.41,92,63,3.26,GH,1726434186
382,meiganga,6.5167,14.3,17.83,95,100,0.95,CM,1726434187
383,coquimbo,-29.9533,-71.3436,13.85,88,20,5.66,CL,1726434188
384,zhenzhou,32.2692,119.1789,24.38,89,48,5.34,CN,1726434189
385,corn island,12.1694,-83.0418,29.1,77,100,4.01,NI,1726434190
386,mitha tiwana,32.2486,72.1108,29.33,42,0,3.59,PK,1726434192
387,saudarkrokur,65.7461,-19.6394,1.19,83,7,1.39,IS,1726434193
388,ambodifotatra,-16.9833,49.85,23.18,62,100,5.95,MG,1726434194
389,ust-tsilma,65.441,52.1498,15.04,87,92,1.82,RU,1726434196
390,nadym,65.5333,72.5167,7.01,55,99,5.18,RU,1726434197
391,kili,5.6439,169.1211,27.85,72,95,1.66,MH,1726434198
392,cunen,15.3375,-91.0269,20.55,68,100,2.63,GT,1726434199
393,igarka,67.4667,86.5833,1.72,72,73,2.35,RU,1726434200
394,decorah,43.3033,-91.7857,30.51,48,20,3.6,US,1726434201
395,yanggu,36.1106,115.7753,17.04,77,0,2.54,CN,1726434203
396,cold lake,54.4502,-110.2017,16.97,67,75,3.6,CA,1726434204
397,prado,-17.3411,-39.2208,24.29,80,0,6.25,BR,1726434205
398,fisterra,42.9049,-9.2629,18.83,64,37,6.61,ES,1726434206
399,aykhal,66.0,111.5,-1.0,96,100,2.69,RU,1726434207
400,xining,36.6167,101.7667,12.92,92,100,1.23,CN,1726434208
401,manta,-0.95,-80.7333,24.88,78,100,5.14,EC,1726434209
402,fu'an,27.0892,119.6453,24.45,97,98,1.16,CN,1726434210
403,remire-montjoly,4.9167,-52.2667,29.02,74,0,4.12,GF,1726434211
404,miranda,3.2499,-76.2281,31.2,40,46,1.11,CO,1726434212
405,morrinhos,-17.7311,-49.0994,30.22,19,6,0.54,BR,1726434215
406,abepura,-2.6333,140.5833,25.45,83,20,3.09,ID,1726434216
407,isangel,-19.55,169.2667,22.7,71,62,4.24,VU,1726434217
408,villa sandino,12.0483,-84.9936,28.63,77,99,4.68,NI,1726434218
409,tralee,52.2704,-9.7026,10.19,92,73,1.42,IE,1726434219
410,coahuayana de hidalgo,18.7,-103.6583,30.82,70,100,2.34,MX,1726434220
411,orsa,54.5153,30.4053,15.76,39,17,3.99,BY,1726434222
412,touros,-5.1989,-35.4608,25.13,74,0,7.18,BR,1726434224
413,reguengos de monsaraz,38.4253,-7.5349,28.03,28,97,2.48,PT,1726434226
414,itacoatiara,-3.1431,-58.4442,39.07,24,12,2.11,BR,1726434227
415,waddan,29.1614,16.139,28.96,41,0,4.73,LY,1726434228
416,palopo,-2.9996,120.1921,22.31,80,64,1.5,ID,1726434229
417,haiku-pauwela,20.9219,-156.3051,29.03,70,40,13.41,US,1726434230
418,comodoro rivadavia,-45.8667,-67.5,14.92,31,100,14.4,AR,1726434124
419,sitka,57.0531,-135.33,14.94,82,100,5.14,US,1726434233
420,yorkton,51.2167,-102.4677,24.91,33,0,6.17,CA,1726434234
421,kalmunai,7.4167,81.8167,27.59,78,99,3.46,LK,1726434235
422,arecibo,18.4724,-66.7157,32.94,70,100,3.28,PR,1726434236
423,itamaraca,-7.7478,-34.8256,24.59,76,3,5.0,BR,1726434237
424,nueva esperanza,15.2667,-87.6,31.12,73,97,2.48,HN,1726434238
425,ambon,-3.6954,128.1814,27.15,95,40,1.03,ID,1726434239
426,miasskoye,55.2784,61.8905,13.49,89,96,3.15,RU,1726434240
427,faya-largeau,17.9257,19.1043,35.81,14,6,4.77,TD,1726434241
428,crane,31.3974,-102.3501,32.96,24,0,9.36,US,1726434242
429,iwanai,42.9744,140.5089,11.8,79,0,2.77,JP,1726434243
430,banjar,-8.19,114.9675,23.27,87,92,2.37,ID,1726434245
431,santa ana,33.7456,-117.8678,25.51,61,75,4.63,US,1726434087
432,rongelap,11.1635,166.8941,28.63,79,86,7.38,MH,1726434247
433,rubio,7.7013,-72.3557,33.11,26,13,2.57,VE,1726434248
434,juan aldama,24.2908,-103.3944,26.31,39,100,4.12,MX,1726434249
435,tromso,69.6496,18.957,9.01,81,0,1.54,NO,1726434250
436,praia da vitoria,38.7333,-27.0667,23.75,73,20,3.56,PT,1726434251
437,cantaura,9.3057,-64.3584,29.84,64,100,1.81,VE,1726434252
438,wangqing,43.3218,129.7634,8.92,85,97,1.25,CN,1726434253
439,santona,43.4439,-3.4576,15.6,70,0,1.51,ES,1726434254
440,tamanrasset,22.785,5.5228,23.95,60,40,6.17,DZ,1726434256
441,altamira,-3.2033,-52.2064,34.05,52,40,2.57,BR,1726434257
442,quartu sant'elena,39.2419,9.1839,19.12,65,0,4.12,IT,1726433985
443,gijang,35.2442,129.2139,24.85,92,83,7.31,KR,1726434260
444,kirkland lake,48.1446,-80.0377,27.16,41,100,1.03,CA,1726434261
445,westport,41.1415,-73.3579,24.9,59,0,4.12,US,1726434262
446,celestun,20.8667,-90.4,30.21,75,83,4.96,MX,1726434263
447,tyuratam,45.6507,63.3156,19.33,34,98,7.02,KZ,1726434264
448,campina verde,-19.5356,-49.4864,32.88,18,6,2.5,BR,1726434266
449,chibougamau,49.9168,-74.3659,25.79,50,20,6.69,CA,1726434267
450,victorica,-36.2151,-65.4359,21.71,12,0,2.24,AR,1726434268
451,lillehammer,61.1146,10.4674,11.76,99,100,2.17,NO,1726434269
452,jinotega,13.0917,-86.0018,29.71,61,40,0.0,NI,1726434270
453,bandon,51.7469,-8.7425,14.77,88,82,3.04,IE,1726434271
454,lichuan,30.3,108.85,17.02,99,49,1.33,CN,1726434272
455,ciudad real,39.0,-4.0,24.5,27,71,1.82,ES,1726434273
456,karagandy,49.8019,73.1021,9.97,88,100,6.78,KZ,1726434274
457,vilyuysk,63.7553,121.6247,-2.49,95,7,1.97,RU,1726434275
458,talcahuano,-36.7167,-73.1167,16.82,59,0,6.17,CL,1726434276
459,tocopilla,-22.092,-70.1979,21.64,57,14,6.66,CL,1726434278
460,al ghayzah,16.2079,52.176,25.45,89,94,3.36,YE,1726434279
461,sungai raya,0.7,108.9,25.36,86,97,3.18,ID,1726434280
462,santa cruz,-17.8,-63.1667,25.7,41,75,5.14,BO,1726434281
463,charikar,35.0136,69.1714,17.91,33,0,1.55,AF,1726434282
464,bel ombre,-4.6167,55.4167,26.91,78,75,9.26,SC,1726434283
465,mikuni,36.2171,136.1519,25.74,87,75,2.33,JP,1726434284
466,chernyshevskiy,63.0128,112.4714,-2.72,86,8,2.47,RU,1726434285
467,tateyama,34.9833,139.8667,26.98,88,82,3.88,JP,1726434286
468,quimili,-27.6333,-62.4167,26.87,14,0,5.5,AR,1726434287
469,mahibadhoo,3.7833,72.9667,28.95,72,76,5.01,MV,1726434288
470,la ferte-saint-aubin,47.7169,1.939,12.76,79,100,1.8,FR,1726434290
471,pont rouge,48.8833,-72.0825,22.61,68,100,1.8,CA,1726434292
472,san julian,21.0167,-102.1667,25.51,50,96,2.51,MX,1726434293
473,santangpu,27.3987,111.9928,23.32,96,65,4.12,CN,1726434294
474,makhambet,47.6667,51.5833,20.4,35,44,5.4,KZ,1726434298
475,maintirano,-18.0667,44.0167,24.62,70,1,0.29,MG,1726434299
476,lazaro cardenas,17.9583,-102.2,30.19,73,99,3.37,MX,1726434300
477,datong,40.0936,113.2914,15.45,89,100,1.26,CN,1726434012
478,trabzon,40.9167,39.8333,21.05,83,20,2.57,TR,1726434302
479,akdepe,42.0551,59.3788,17.88,33,71,4.1,TM,1726434303
480,alupka,44.4167,34.05,23.89,68,100,5.58,UA,1726434304
481,namibe,-15.1961,12.1522,18.12,84,45,1.76,AO,1726434305
482,raduzhny,62.0961,77.475,3.23,68,51,1.68,RU,1726434306
483,okola,4.0167,11.3833,21.02,99,65,1.48,CM,1726434307
484,yarmouth,41.7057,-70.2286,21.77,56,0,2.57,US,1726434308
485,joshimath,30.5667,79.5667,13.86,81,1,2.07,IN,1726434310
486,opuwo,-18.0607,13.84,22.24,23,74,2.44,NA,1726434311
487,sur,22.5667,59.5289,28.6,60,0,5.6,OM,1726434312
488,wynyard,-41.0,145.7167,10.17,78,100,5.71,AU,1726434314
489,labytnangi,66.6572,66.4183,12.76,94,69,3.3,RU,1726434315
490,douala,4.0483,9.7043,25.95,94,75,1.03,CM,1726434316
491,ishikawa,26.4233,127.8214,30.19,84,75,5.14,JP,1726434317
492,rumbek,6.802,29.6912,22.39,92,98,1.49,SS,1726434318
493,al bahah,20.0129,41.4677,22.27,47,74,3.14,SA,1726434320
494,el granada,37.5027,-122.4694,19.45,78,100,8.75,US,1726434321
495,armidale,-30.5167,151.65,3.74,85,7,0.4,AU,1726434322
496,shizunai-furukawacho,42.3339,142.3669,14.12,68,0,3.63,JP,1726434323
497,saynshand,44.8824,110.1163,11.49,65,85,4.81,MN,1726434324
498,kurumkan,54.3,110.3,5.26,85,62,2.95,RU,1726434325
499,fernie,49.5,-115.0687,19.97,36,70,2.09,CA,1726434326
500,usman',52.0466,39.7288,15.74,36,4,3.43,RU,1726434327
501,mata-utu,-13.2816,-176.1745,27.03,80,57,4.4,WF,1726434328
502,bamboo flat,11.7,92.7167,28.05,89,40,3.09,IN,1726434331
503,rajaori,33.3833,74.3,19.3,59,0,2.47,IN,1726434332
504,konarka,19.9,86.1167,27.74,75,100,6.41,IN,1726434333
505,okhotsk,59.3833,143.3,6.36,69,36,4.47,RU,1726434334
506,safi,32.1667,-8.8333,21.45,75,0,1.61,MA,1726434335
507,santo antonio do sudoeste,-26.0736,-53.7253,15.51,95,100,1.91,BR,1726434336
508,hotan,37.0997,79.9269,20.98,26,84,1.81,CN,1726434337
509,paratinga,-12.6906,-43.1842,30.27,21,0,2.14,BR,1726434338
510,new norfolk,-42.7826,147.0587,8.29,90,96,1.72,AU,1726434339
511,conception bay south,47.4999,-52.9981,13.02,75,88,8.84,CA,1726434341
512,port lincoln,-34.7333,135.8667,10.47,74,17,5.5,AU,1726434342
513,moultrie,31.1799,-83.7891,26.94,78,100,3.6,US,1726434343
514,lerwick,60.1545,-1.1494,10.95,92,52,6.07,GB,1726434344
515,lethem,3.3803,-59.7968,30.5,61,100,3.48,GY,1726434345
516,howard springs,-12.497,131.047,24.95,89,48,1.41,AU,1726434346
517,san lawrenz,36.0553,14.204,21.03,68,1,7.13,MT,1726434347
518,carazinho,-28.2839,-52.7864,12.83,90,100,5.0,BR,1726434348
519,emirgazi,37.9022,33.8372,21.6,38,1,5.73,TR,1726434349
520,charters towers,-20.1,146.2667,16.27,83,66,3.54,AU,1726434350
521,farasan,16.7022,42.1183,31.21,72,100,2.94,SA,1726434352
522,mckinleyville,40.9465,-124.1006,18.45,72,0,6.69,US,1726434353
523,fort st. john,56.2499,-120.8529,15.94,51,75,4.12,CA,1726434354
524,les avirons,-21.2418,55.3394,18.05,64,0,1.54,RE,1726434355
525,nadi,-17.8,177.4167,27.0,69,75,0.0,FJ,1726434356
526,aspropyrgos,38.0667,23.5833,23.54,52,0,2.06,GR,1726434357
527,corinth,37.9407,22.9573,22.16,48,11,3.35,GR,1726434358
528,lautoka,-17.6167,177.4667,26.92,69,75,0.0,FJ,1726434359
529,amahai,-3.3333,128.9167,24.59,88,100,1.05,ID,1726434360
530,celendin,-6.8703,-78.1517,21.48,32,45,5.19,PE,1726434361
531,terenozek,45.05,64.9833,17.95,35,96,6.89,KZ,1726434363
532,kyabe,9.4515,18.9449,20.43,97,98,1.26,TD,1726434364
533,omdurman,15.6445,32.4777,35.94,33,58,4.5,SD,1726434365
534,hobyo,5.3505,48.5268,24.74,80,24,11.96,SO,1726434366
535,alamogordo,32.8995,-105.9603,33.86,20,0,5.14,US,1726434367
536,lompoc,34.6391,-120.4579,21.68,69,20,5.14,US,1726434368
537,sabang,5.8933,95.3214,28.09,74,78,11.22,ID,1726434369
538,mandasa,18.8667,84.4667,25.49,76,100,2.28,IN,1726434370
539,luena,-11.7833,19.9167,20.79,21,0,0.56,AO,1726434371
540,sidney,-33.8679,151.2073,8.54,69,20,5.66,AU,1726434351
541,paris,48.8534,2.3488,15.43,71,0,2.57,FR,1726434188
542,fada,7.25,4.0667,22.84,98,100,0.88,NG,1726434375
543,senanga,-16.1167,23.2667,23.31,21,42,1.3,ZM,1726434376
544,queenstown,-31.8976,26.8753,13.27,81,72,3.06,ZA,1726434377
545,riachao das neves,-11.7461,-44.91,29.33,22,0,1.9,BR,1726434378
546,onsong,42.9572,129.9933,10.42,90,100,0.74,KP,1726434379
547,bowie,33.4501,-94.4335,27.9,71,93,2.84,US,1726434380
548,asaita,11.5636,41.4394,35.1,35,14,3.34,ET,1726434381
549,al hasakah,36.5024,40.7477,28.66,49,0,7.66,SY,1726434382
550,gigant,46.5066,41.3419,19.56,34,0,6.65,RU,1726434383
551,mermoz boabab,14.7065,-17.4758,26.88,83,0,1.03,SN,1726434384
552,kangding,30.0513,101.9603,16.94,99,100,1.26,CN,1726434386
553,ciudad lazaro cardenas,17.9583,-102.2,30.19,73,99,3.37,MX,1726434387
554,shakawe,-18.3667,21.85,25.37,20,14,2.74,BW,1726434388
555,mount isa,-20.7333,139.5,21.87,30,0,4.63,AU,1726434389
556,taltal,-25.4,-70.4833,18.58,61,27,3.01,CL,1726434390
557,yanchep,-31.55,115.6833,14.05,59,0,6.15,AU,1726434391
558,la ronge,55.1001,-105.2842,16.14,63,100,2.57,CA,1726434392
559,inda silase,14.1031,38.2829,18.06,80,100,0.47,ET,1726434393
560,kagal'nitskaya,46.8806,40.1466,20.95,31,0,6.99,RU,1726434394
561,svyetlahorsk,52.6329,29.7389,18.93,31,100,4.99,BY,1726434395
562,ozalp,38.6548,43.993,16.11,47,100,1.95,TR,1726434397
563,jieshou,33.2634,115.3611,20.41,87,29,2.53,CN,1726434398
564,muang khong,14.1167,105.85,23.35,99,100,0.98,LA,1726434399
565,caleta de carquin,-11.0925,-77.6267,18.27,75,14,5.35,PE,1726434400
566,taulaga,-11.0553,-171.0883,27.8,78,83,6.6,AS,1726434401
567,ghat,24.9647,10.1728,30.63,36,36,3.03,LY,1726434402
568,montepuez,-13.1256,38.9997,20.66,73,1,2.96,MZ,1726434403
569,ivdel',60.6911,60.4206,11.69,98,3,1.71,RU,1726434404
570,jian'ou,27.0469,118.3253,24.24,97,89,1.12,CN,1726434405
571,broken hill,-31.95,141.4333,3.39,58,0,5.34,AU,1726434406
572,mpophomeni,-29.5682,30.1862,11.71,97,95,0.12,ZA,1726434407
573,ryl'sk,51.5655,34.6822,18.27,35,5,5.31,RU,1726434409
574,samitah,16.596,42.9444,32.79,59,95,2.07,SA,1726434410
575,i-n-salah,27.1935,2.4607,37.14,13,0,2.29,DZ,1726434411
576,kiunga,-6.1219,141.2906,23.11,100,100,0.48,PG,1726434412
577,oye-plage,50.9771,2.0428,13.9,77,100,5.1,FR,1726434413
578,geraldton,-28.7667,114.6,13.23,50,0,7.2,AU,1726434414
579,hounde,11.5,-3.5167,23.95,92,84,1.85,BF,1726434415
580,saint-joseph,-21.3667,55.6167,19.21,67,45,4.33,RE,1726434416
581,greenville,35.6127,-77.3663,24.97,90,75,6.69,US,1726434417
582,ulladulla,-35.35,150.4667,5.51,52,0,2.21,AU,1726434418
583,verkhnyaya khava,51.8404,39.9413,15.91,35,5,3.64,RU,1726434420
584,ad dabbah,18.05,30.95,34.8,17,12,4.1,SD,1726434421
585,obo,5.3998,26.4869,21.18,92,100,0.94,CF,1726434423
